<AnchorPointList>
  <AnchorPoint id="1">
    <Point height="150" waterdeep="2.5">
      <Coordinates latitude="54.30696" latitude_d="54" latitude_m="18" latitude_s="25.04608" lngitude="26.86174" lngitude_d="26" lngitude_m="51" lngitude_s="42.25754" />
      <GroundType type_code="9" name="Тест Песок м/з" porosity="0.4" holdmigration="14" waterfilter="4.213E-05" diffusion="0.2" distribution="0.2" sorption="0.2" watercapacity="0.08" soilmoisture="0.39" аveryanovfactor="4" permeability="0.2" density="1450" />
    </Point>
    <CadastreType type_code="2" name="Земли населенных пунктов, садоводческих товариществ, дачных кооперативов" pdk_coef="0.0001" water_pdk_coef="0.0001" ground_doc_name="ПДК от 12.03.2012 № 17/1" water_doc_name="ПДК от 06.10.2004 № 90" />
  </AnchorPoint>
  <AnchorPoint id="2">
    <Point height="130" waterdeep="3.5">
      <Coordinates latitude="53.11807" latitude_d="53" latitude_m="7" latitude_s="5.061035" lngitude="22.37281" lngitude_d="22" lngitude_m="22" lngitude_s="22.11731" />
      <GroundType type_code="10" name="Тест Супесь" porosity="0.46" holdmigration="31.3" waterfilter="4.5E-06" diffusion="0.2" distribution="0.2" sorption="0.2" watercapacity="0.11" soilmoisture="0.42" аveryanovfactor="4.5" permeability="0.2" density="1650" />
    </Point>
    <CadastreType type_code="3" name="Земли промышленности, транспорта, связи, энергетики, обороны и иного      &#xD;&#xA;    назначения" pdk_coef="0.0005" water_pdk_coef="0.0005" ground_doc_name="ПДК от 12.03.2012 № 17/1" water_doc_name="ПДК от 06.10.2004 № 90" />
  </AnchorPoint>
  <AnchorPoint id="3">
    <Point height="110" waterdeep="3">
      <Coordinates latitude="53.11812" latitude_d="53" latitude_m="7" latitude_s="5.239563" lngitude="22.37281" lngitude_d="22" lngitude_m="22" lngitude_s="22.11044" />
      <GroundType type_code="9" name="Тест Песок м/з" porosity="0.4" holdmigration="14" waterfilter="4.213E-05" diffusion="0.2" distribution="0.2" sorption="0.2" watercapacity="0.08" soilmoisture="0.39" аveryanovfactor="4" permeability="0.2" density="1450" />
    </Point>
    <CadastreType type_code="1" name="Земли сельскохозяйственного назначения" pdk_coef="5E-05" water_pdk_coef="5E-05" ground_doc_name="ПДК от 12.03.2012 № 17/1" water_doc_name="ПДК от 06.10.2004 № 90" />
  </AnchorPoint>
  <AnchorPoint id="4">
    <Point height="121" waterdeep="2">
      <Coordinates latitude="55.50493" latitude_d="55" latitude_m="30" latitude_s="17.75665" lngitude="28.73968" lngitude_d="28" lngitude_m="44" lngitude_s="22.85934" />
      <GroundType type_code="10" name="Тест Супесь" porosity="0.46" holdmigration="31.3" waterfilter="4.5E-06" diffusion="0.2" distribution="0.2" sorption="0.2" watercapacity="0.11" soilmoisture="0.42" аveryanovfactor="4.5" permeability="0.2" density="1650" />
    </Point>
    <CadastreType type_code="5" name="Земли лесного фонда" pdk_coef="5E-05" water_pdk_coef="5E-05" ground_doc_name="ПДК от 12.03.2012 № 17/1" water_doc_name="ПДК от 06.10.2004 № 90" />
  </AnchorPoint>
  <AnchorPoint id="5">
    <Point height="141" waterdeep="2.5">
      <Coordinates latitude="53.00002" latitude_d="53" latitude_m="0" latitude_s="0.08239746" lngitude="29.27159" lngitude_d="29" lngitude_m="16" lngitude_s="17.71454" />
      <GroundType type_code="10" name="Тест Супесь" porosity="0.46" holdmigration="31.3" waterfilter="4.5E-06" diffusion="0.2" distribution="0.2" sorption="0.2" watercapacity="0.11" soilmoisture="0.42" аveryanovfactor="4.5" permeability="0.2" density="1650" />
    </Point>
    <CadastreType type_code="7" name="Земли запаса" pdk_coef="5E-05" water_pdk_coef="5E-05" ground_doc_name="ПДК от 12.03.2012 № 17/1" water_doc_name="ПДК от 06.10.2004 № 90" />
  </AnchorPoint>
  <AnchorPoint id="6">
    <Point height="0.02" waterdeep="0.03">
      <Coordinates latitude="26.00056" latitude_d="26" latitude_m="0" latitude_s="2.005005" lngitude="16.0006" lngitude_d="16" lngitude_m="0" lngitude_s="2.1492" />
      <GroundType type_code="1" name="Песчаный" porosity="0.43" holdmigration="0.6" waterfilter="4.21E-05" diffusion="0.2" distribution="0.2" sorption="0.2" watercapacity="0.01" soilmoisture="0.2" аveryanovfactor="5" permeability="0.2" density="2100" />
    </Point>
    <CadastreType type_code="1" name="Земли сельскохозяйственного назначения" pdk_coef="5E-05" water_pdk_coef="5E-05" ground_doc_name="ПДК от 12.03.2012 № 17/1" water_doc_name="ПДК от 06.10.2004 № 90" />
  </AnchorPoint>
</AnchorPointList>